{
  "records": [
    {
      "code": "110000",
      "name": "北京",
      "shortName": "北京",
      "lng": "116.405285",
      "lat": "39.904989"
    },
    {
      "code": "120000",
      "name": "天津",
      "shortName": "天津",
      "lng": "117.190182",
      "lat": "39.125596"
    },
    {
      "code": "130000",
      "name": "河北省",
      "shortName": "河北",
      "lng": "114.502461",
      "lat": "38.045474"
    },
    {
      "code": "140000",
      "name": "山西省",
      "shortName": "山西",
      "lng": "112.549248",
      "lat": "37.857014"
    },
    {
      "code": "150000",
      "name": "内蒙古自治区",
      "shortName": "内蒙古",
      "lng": "111.670801",
      "lat": "40.818311"
    },
    {
      "code": "220000",
      "name": "吉林省",
      "shortName": "吉林",
      "lng": "125.3245",
      "lat": "43.886841"
    },
    {
      "code": "230000",
      "name": "黑龙江省",
      "shortName": "黑龙江",
      "lng": "126.642464",
      "lat": "45.756967"
    },
    {
      "code": "310000",
      "name": "上海",
      "shortName": "上海",
      "lng": "121.472644",
      "lat": "31.231706"
    },
    {
      "code": "320000",
      "name": "江苏省",
      "shortName": "江苏",
      "lng": "118.767413",
      "lat": "32.041544"
    },
    {
      "code": "330000",
      "name": "浙江省",
      "shortName": "浙江",
      "lng": "120.153576",
      "lat": "30.287459"
    },
    {
      "code": "340000",
      "name": "安徽省",
      "shortName": "安徽",
      "lng": "117.283042",
      "lat": "31.86119"
    },
    {
      "code": "350000",
      "name": "福建省",
      "shortName": "福建",
      "lng": "119.306239",
      "lat": "26.075302"
    },
    {
      "code": "360000",
      "name": "江西省",
      "shortName": "江西",
      "lng": "115.892151",
      "lat": "28.676493"
    },
    {
      "code": "370000",
      "name": "山东省",
      "shortName": "山东",
      "lng": "117.000923",
      "lat": "36.675807"
    },
    {
      "code": "410000",
      "name": "河南省",
      "shortName": "河南",
      "lng": "113.665412",
      "lat": "34.757975"
    },
    {
      "code": "420000",
      "name": "湖北省",
      "shortName": "湖北",
      "lng": "114.298572",
      "lat": "30.584355"
    },
    {
      "code": "430000",
      "name": "湖南省",
      "shortName": "湖南",
      "lng": "112.982279",
      "lat": "28.19409"
    },
    {
      "code": "440000",
      "name": "广东省",
      "shortName": "广东",
      "lng": "113.280637",
      "lat": "23.125178"
    },
    {
      "code": "450000",
      "name": "广西壮族自治区",
      "shortName": "广西",
      "lng": "108.320004",
      "lat": "22.82402"
    },
    {
      "code": "460000",
      "name": "海南省",
      "shortName": "海南",
      "lng": "110.33119",
      "lat": "20.031971"
    },
    {
      "code": "500000",
      "name": "重庆",
      "shortName": "重庆",
      "lng": "106.504962",
      "lat": "29.533155"
    },
    {
      "code": "510000",
      "name": "四川省",
      "shortName": "四川",
      "lng": "104.065735",
      "lat": "30.659462"
    },
    {
      "code": "520000",
      "name": "贵州省",
      "shortName": "贵州",
      "lng": "106.713478",
      "lat": "26.578343"
    },
    {
      "code": "530000",
      "name": "云南省",
      "shortName": "云南",
      "lng": "102.712251",
      "lat": "25.040609"
    },
    {
      "code": "540000",
      "name": "西藏自治区",
      "shortName": "西藏",
      "lng": "91.132212",
      "lat": "29.660361"
    },
    {
      "code": "610000",
      "name": "陕西省",
      "shortName": "陕西",
      "lng": "108.948024",
      "lat": "34.263161"
    },
    {
      "code": "620000",
      "name": "甘肃省",
      "shortName": "甘肃",
      "lng": "103.823557",
      "lat": "36.058039"
    },
    {
      "code": "630000",
      "name": "青海省",
      "shortName": "青海",
      "lng": "101.778916",
      "lat": "36.623178"
    },
    {
      "code": "640000",
      "name": "宁夏回族自治区",
      "shortName": "宁夏",
      "lng": "106.278179",
      "lat": "38.46637"
    },
    {
      "code": "650000",
      "name": "新疆维吾尔自治区",
      "shortName": "新疆",
      "lng": "87.617733",
      "lat": "43.792818"
    },
    {
      "code": "710000",
      "name": "台湾",
      "shortName": "台湾",
      "lng": "121.509062",
      "lat": "25.044332"
    },
    {
      "code": "810000",
      "name": "香港特别行政区",
      "shortName": "香港",
      "lng": "114.173355",
      "lat": "22.320048"
    },
    {
      "code": "820000",
      "name": "澳门特别行政区",
      "shortName": "澳门",
      "lng": "113.54909",
      "lat": "22.198951"
    },
    {
      "code": "900000",
      "name": "钓鱼岛",
      "shortName": "钓鱼岛",
      "lng": "123.478088",
      "lat": "25.742385"
    },
    {
      "code": "210000",
      "name": "辽宁省",
      "shortName": "辽宁",
      "lng": "123.455128",
      "lat": "41.722374"
    }
  ]
}
